stop_id,stop_name,stop_lat,stop_lon,stop_code
0167,127th ST SW and 8TH AVE W,47.881763,-122.243645,0167
0168,AIRPORT RD and E GIBSON RD,47.881763,-122.249687,0168
0426,HEWITT AVE and OAKES AVE,47.979126,-122.203865,0426
0827,BROADWAY and 13TH ST,48.000496,-122.200874,0827
0877,EVERGREEN WAY and 79TH PL SE,47.926079,-122.223915,0877
0963,SR 525 and 80TH ST SW,47.926064,-122.300179,0963
0964,SR 525 and 84TH ST SW,47.922871,-122.300064,0964
0967,SR 525 and CLOVER LANE,47.933525,-122.306290,0967
0968,SR 525 and GOAT TRAIL RD,47.939983,-122.305702,0968
0972,SR 525 and 15TH PL,47.937508,-122.305977,0972
0973,SR 525 and 76TH ST SW,47.928989,-122.301102,0973
1010,W MARINE VIEW DRIVE and SKYLINE DR,48.014301,-122.194252,1010
1011,W MARINE VIEW DRIVE and SKYLINE DR,48.014137,-122.193657,1011
1035,N BROADWAY and 8TH ST,48.007664,-122.195229,1035
1051,COLLEGE STATION - BAY A,48.005661,-122.200317,1051
1052,COLLEGE STATION - BAY B,48.005501,-122.200317,1052
1053,COLLEGE STATION - BAY C,48.005245,-122.200294,1053
1054,COLLEGE STATION - BAY D,48.005325,-122.200485,1054
1055,COLLEGE STATION - BAY E,48.005596,-122.200478,1055
1056,COLLEGE STATION - BAY F,48.005760,-122.200478,1056
1057,BROADWAY and TOWER ST,48.005257,-122.200859,1057
1058,BROADWAY and TOWER,48.005573,-122.201004,1058
1060,N BROADWAY and 10TH ST,48.003860,-122.200111,1060
1075,ALVERSON BLVD and 2ND ST,48.015347,-122.204849,1075
1076,ALVERSON BLVD and 2ND ST,48.015537,-122.204964,1076
1080,ALVERSON BLVD and 4TH ST,48.012383,-122.205818,1080
1082,WETMORE AVE and ALVERSON BLVD,48.011627,-122.206444,1082
1084,WETMORE AVE and 6TH ST,48.009262,-122.206535,1084
1085,WETMORE AVE and 6TH ST,48.010082,-122.206345,1085
1090,WETMORE AVE and 8TH ST,48.006977,-122.206429,1090
1092,WETMORE AVE and 8TH ST,48.006676,-122.206612,1092
1093,COLBY AVE and 10TH ST,48.004486,-122.207848,1093
1113,COLBY AVE and 10TH ST,48.004070,-122.208115,1113
1120,Port Gardner Way and W Marine View Dr,48.000328,-122.214844,1120
1123,W MARINE VIEW DR and 14TH ST,47.999268,-122.214035,1123
1125,W MARINE VIEW DR and 16TH ST,47.996670,-122.213623,1125
1140,COLBY AVE and 13TH ST,48.000526,-122.207932,1140
1145,COLBY AVE and 13TH ST,48.000465,-122.208229,1145
1150,COLBY AVE and 15TH ST,47.997917,-122.208290,1150
1155,COLBY AVE and 15TH ST,47.997921,-122.208031,1155
1160,COLBY AVE and 17TH ST,47.995346,-122.208084,1160
1165,COLBY AVE and 17TH ST,47.994862,-122.208397,1165
1170,BROADWAY and 12TH ST,48.001961,-122.201149,1170
1180,BROADWAY and 16TH ST,47.996082,-122.201294,1180
1185,BROADWAY and 18TH ST,47.993454,-122.201363,1185
1190,BROADWAY and 19TH ST,47.992111,-122.201385,1190
1195,BROADWAY and 21ST ST,47.989525,-122.201454,1195
1200,COLBY AVE and 19TH ST,47.992729,-122.208160,1200
1205,COLBY AVE and 19TH ST,47.992237,-122.208435,1205
1210,COLBY AVE and 21ST ST,47.990036,-122.208237,1210
1215,COLBY AVE and 21ST ST,47.989655,-122.208527,1215
1225,W MARINE VIEW DR and 18TH ST,47.994354,-122.213631,1225
1230,W MARINE VIEW DR and 19TH ST,47.991840,-122.213989,1230
1235,BROADWAY and 23RD ST,47.986774,-122.201530,1235
1240,COLBY AVE and 23RD ST,47.987434,-122.208290,1240
1245,COLBY AVE and 23RD ST,47.986946,-122.208565,1245
1250,COLBY AVE and 24TH ST,47.985405,-122.208412,1250
1255,COLBY AVE and 25TH ST,47.984959,-122.208603,1255
1260,W MARINE VIEW DR and 26TH ST,47.983116,-122.214149,1260
1263,W MARINE VIEW DR and CALIFORNIA ST,47.980518,-122.214447,1263
1265,W MARINE VIEW DR and 26TH ST,47.983421,-122.214363,1265
1268,W MARINE VIEW DR and CALIFORNIA ST,47.980919,-122.214142,1268
1270,COLBY AVE and 26TH ST,47.983410,-122.208450,1270
1275,COLBY AVE and 26TH ST,47.982613,-122.208626,1275
1290,WETMORE AVE and EVERETT AVE,47.981285,-122.207245,1290
1295,WETMORE AVE and EVERETT AVE,47.981270,-122.207092,1295
1299,AIRPORT RD and ADMIRALTY WAY,47.883919,-122.253960,1299
1301,AIRPORT RD and EVERGREEN WAY,47.888687,-122.257973,1301
1305,EVERETT AVE and OAKES AVE,47.981819,-122.203979,1305
1310,EVERETT AVE and LOMBARD AVE,47.982002,-122.202621,1310
1315,BROADWAY and 25TH ST,47.984127,-122.201599,1315
1318,BROADWAY and 14TH ST,47.998665,-122.201241,1318
1328,N BROADWAY and TOWER,48.006229,-122.197060,1328
1355,HEWITT AVE and ROCKEFELLER AVE,47.979332,-122.205528,1355
1357,HEWITT AVE and GRAND AVE,47.979240,-122.212646,1357
1358,HEWITT AVE and GRAND AVE,47.979431,-122.213127,1358
1360,WETMORE AVE and HEWITT AVE,47.979000,-122.207123,1360
1365,HEWITT AVE and WETMORE,47.979164,-122.206871,1365
1367,EVERGREEN WAY and 79TH PL SE,47.925571,-122.224854,1367
1370,WETMORE AVE and HEWITT AVE,47.979561,-122.207298,1370
1373,WALL ST and GRAND AVE,47.977825,-122.213509,1373
1375,HEWITT AVE and WETMORE,47.979385,-122.207748,1375
1378,WALL ST and GRAND AVE,47.977718,-122.213081,1378
1380,HEWITT AVE and HOYT AVE,47.979393,-122.209755,1380
1383,WALL ST and HOYT AVE,47.977894,-122.209404,1383
1385,HEWITT AVE and HOYT AVE,47.979214,-122.210220,1385
1388,WALL ST and COLBY AVE,47.977791,-122.209213,1388
1390,PACIFIC AVE and NASSAU ST,47.976513,-122.216133,1390
1395,PACIFIC AVE and NASSAU ST,47.976391,-122.216103,1395
1410,RUCKER AVE and PACIFIC AVE,47.976086,-122.211510,1410
1411,PACIFIC AVE and RUCKER AVE,47.976551,-122.211807,1411
1413,PACIFIC AVE and COLBY AVE,47.976418,-122.209122,1413
1415,PACIFIC AVE and HOYT AVE,47.976604,-122.209503,1415
1425,COLBY AVE and PACIFIC AVE,47.976284,-122.208664,1425
1450,LOMBARD AVE and PACIFIC AVE,47.977062,-122.202850,1450
1455,SR 525 and 3RD ST,47.946510,-122.304108,1455
1456,SR 525 and 81ST PL SW,47.924004,-122.300308,1456
1457,PACIFIC AVE and LOMBARD AVE,47.976742,-122.202682,1457
1460,RUCKER AVE and 32ND ST,47.975422,-122.211174,1460
1465,SR525 and FRONT ST,47.948402,-122.304352,1465
1466,RUCKER AVE and 33RD ST,47.974075,-122.211121,1466
1468,SR 525 and 76TH ST SW,47.929249,-122.301849,1468
1469,SR 525 and 80TH ST SW,47.926003,-122.300377,1469
1470,SR 525 and CLOVER LN,47.933353,-122.306412,1470
1472,SR 525 and GOAT TRAIL RD,47.940247,-122.305824,1472
1475,RUCKER AVE and 35TH ST,47.971523,-122.210991,1475
1477,RUCKER AVE and 33RD ST,47.973579,-122.211395,1477
1480,RUCKER AVE and 35TH ST,47.970821,-122.211273,1480
1485,COLBY AVE and 32ND ST,47.975403,-122.208366,1485
1490,COLBY AVE and 32ND ST,47.974907,-122.208595,1490
1495,COLBY AVE and 34TH ST,47.972855,-122.208229,1495
1500,COLBY AVE and 34TH ST,47.972336,-122.208488,1500
1505,COLBY AVE and 36TH ST,47.970100,-122.208084,1505
1510,COLBY AVE and 36TH ST,47.969704,-122.208344,1510
1515,COLBY AVE and 39TH ST,47.966225,-122.207901,1515
1520,RUCKER AVE and 37TH ST,47.968422,-122.210861,1520
1525,RUCKER AVE and 37TH ST,47.968689,-122.211182,1525
1530,COLBY AVE and 39TH ST,47.965710,-122.208183,1530
1535,RUCKER AVE and 39TH ST,47.965786,-122.211044,1535
1537,RUCKER AVE and 39TH ST,47.965660,-122.210739,1537
1540,40th  and COLBY AVE,47.963467,-122.208420,1540
1543,COLBY AVE and 41ST ST,47.963993,-122.207825,1543
1545,40th ST and RUCKER,47.963352,-122.211273,1545
1552,BROADWAY and 36TH ST,47.970451,-122.201065,1552
1553,BROADWAY and 36TH ST,47.970406,-122.201363,1553
1741,93rd ST SWand AIRPORT RD,47.913391,-122.272820,1741
1748,BOEING GATE E-66,47.914253,-122.276619,1748
2000,E MARINE VIEW DRIVE and SR529,48.009350,-122.189316,2000
2001,E MARINE VIEW DRIVE and SR 529,48.009537,-122.189163,2001
2005,E MARINE VIEW DRIVE and BUTLER ST,48.007385,-122.188766,2005
2010,N BROADWAY and 7TH ST,48.008232,-122.194016,2010
2015,E MARINE VIEW DRIVE and HAWTHORNE ST,48.005836,-122.189003,2015
2017,E MARINE VIEW DR and 10TH ST,48.004166,-122.189041,2017
2025,E MARINE VIEW DRIVE and 10TH ST,48.003971,-122.188850,2025
2030,11TH ST and POPLAR ST,48.003155,-122.196220,2030
2035,11TH ST and POPLAR ST,48.003281,-122.196022,2035
2040,10th ST and RAINIER AVE,48.003262,-122.197945,2040
2045,RAINIER AVE and 11TH ST,48.002754,-122.198334,2045
2050,RAINIER AVE and 12TH ST,48.001740,-122.198349,2050
2055,RAINIER AVE and 12TH ST,48.001747,-122.198540,2055
2060,POPLAR ST and 12TH ST,48.001572,-122.194489,2060
2065,POPLAR ST and 12TH ST,48.001102,-122.194618,2065
2070,E MARINE VIEW DRIVE and 12TH ST,48.001328,-122.189110,2070
2075,E MARINE VIEW DRIVE and 13TH ST,48.000023,-122.188972,2075
2085,BROADWAY and 15TH ST,47.997868,-122.200935,2085
2090,POPLAR ST and 14TH ST,47.998291,-122.194855,2090
2095,14th ST and BAKER,47.997662,-122.194756,2095
2100,14th ST and FULTON,47.997555,-122.194809,2100
2104,MARINER PARK AND RIDE - Bay 3,47.879871,-122.238541,2104
2105,14th ST and MAPLE ST,47.997471,-122.189667,2105
2110,14th ST and WALNUT ST,47.997547,-122.189720,2110
2115,WALNUT ST and 15TH ST,47.997681,-122.189201,2115
2120,WALNUT ST and 15TH ST,47.997681,-122.189026,2120
2125,WALNUT ST and 17TH ST,47.995049,-122.189102,2125
2130,WALNUT ST and 17TH ST,47.994690,-122.189278,2130
2135,BROADWAY and 18TH ST,47.994068,-122.201035,2135
2140,BROADWAY and 19TH ST,47.992699,-122.201065,2140
2145,WALNUT ST and 19TH ST,47.992432,-122.189133,2145
2150,WALNUT ST and 19TH ST,47.991959,-122.189354,2150
2155,WALNUT ST and LEONARD DR,47.990280,-122.189392,2155
2160,WALNUT ST and 22ND ST,47.988209,-122.189285,2160
2165,WALNUT ST and 22ND ST,47.987923,-122.189461,2165
2170,BROADWAY and 21ST ST,47.989983,-122.201134,2170
2175,BROADWAY and 23RD ST,47.987282,-122.201210,2175
2180,23RD ST and STATE ST,47.986904,-122.186836,2180
2185,23RD ST and STATE ST,47.987022,-122.186394,2185
2190,23RD ST and SUMMIT AVE,47.986992,-122.184113,2190
2195,23RD ST and SUMMIT AVE,47.986870,-122.183960,2195
2205,HARRISON AVE and 24TH ST,47.985710,-122.182358,2205
2210,HARRISON AVE and 25TH ST,47.984386,-122.182503,2210
2215,HARRISON AVE and 26TH ST,47.982044,-122.182419,2215
2225,WALNUT ST and 24TH ST,47.985863,-122.189339,2225
2230,WALNUT ST and 24TH ST,47.985790,-122.189529,2230
2235,WALNUT ST and 26TH ST,47.983200,-122.189407,2235
2240,BROADWAY and 26TH ST,47.983021,-122.201324,2240
2245,EVERETT AVE and BROADWAY,47.981796,-122.200920,2245
2260,EVERETT AVE and RAINIER AVE,47.981960,-122.199387,2260
2270,EVERETT AVE and BAKER AVE,47.981731,-122.196037,2270
2275,EVERETT AVE and CEDAR ST,47.981907,-122.194191,2275
2280,EVERETT AVE and CEDAR,47.981701,-122.192856,2280
2282,MAPLE ST and EVERETT AVE,47.981247,-122.191078,2282
2285,EVERETT AVE and WALNUT ST,47.981861,-122.190002,2285
2290,EVERETT AVE and WALNUT ST,47.981667,-122.190094,2290
2295,EVERETT AVE and HIGHLAND AVE,47.981606,-122.185616,2295
2300,EVERETT AVE and SUMMIT AVE,47.981789,-122.184265,2300
2305,HARRISON AVE and EVERETT AVE,47.981895,-122.182556,2305
2310,MAPLE ST and HEWITT AVE,47.979282,-122.190849,2310
2315,MAPLE ST and PACIFIC AVE,47.977600,-122.191162,2315
2323,32nd ST  and MCDOUGALL,47.974121,-122.199783,2323
2324,32nd and MCDOUGALL,47.973988,-122.200195,2324
2325,PACIFIC AVE and FULTON ST,47.976856,-122.194756,2325
2327,BOEING GATE E-72,47.925652,-122.279358,2327
2328,BOEING GATE E-84,47.932316,-122.277496,2328
2330,BOEING GATE E-88,47.931305,-122.265991,2330
2331,PACIFIC AVE and CEDAR ST,47.976841,-122.193077,2331
2335,PACIFIC AVE and CEDAR ST,47.976620,-122.194046,2335
2340,EVERETT STATION - F1,47.974426,-122.197998,2340
2341,EVERETT STATION - F2,47.974903,-122.198303,2341
2342,SMITH AVE and 35TH ST,47.972271,-122.197060,2342
2343,SMITH AVE and 35TH ST,47.970921,-122.196861,2343
2345,SMITH AVE and 36TH ST,47.969593,-122.197014,2345
2355,WETMORE AVE and WALL ST,47.977268,-122.207214,2355
2356,PACIFIC AVE and ROCKEFELLER AVE,47.976673,-122.205536,2356
2359,PACIFIC AVENUE and ROCKEFELLER AVE,47.976501,-122.204987,2359
2364,BROADWAY and 38TH ST,47.967121,-122.200905,2364
2365,BROADWAY and 34th St,47.972553,-122.201080,2365
2366,BROADWAY and 38TH ST,47.967155,-122.201233,2366
2367,BROADWAY and 34TH ST,47.972881,-122.201485,2367
2425,EVERETT STATION - D1,47.974079,-122.197823,2425
2430,EVERETT STATION - D2,47.974545,-122.197716,2430
2431,EVERETT STATION- D2,47.974289,-122.197609,2431
2440,HEWITT AVE and LOMBARD AVE,47.979313,-122.202759,2440
2441,EVERETT STATION - D3,47.974228,-122.197594,2441
2445,EVERETT STATION - E0,47.974667,-122.197884,2445
2450,EVERETT STATION- I0,47.973766,-122.197388,2450
2451,EVERETT STATION - I1,47.972824,-122.196930,2451
2466,WETMORE AVE and WALL ST,47.977310,-122.207069,2466
2484,AIRPORT RD and WCASINO RD,47.920246,-122.271935,2484
2502,EL CAPITAN WAY and VALHALLA DR,47.915359,-122.205124,2502
2668,AIRPORT RD and 94TH ST SW,47.913704,-122.271858,2668
2886,BROADWAY and WALL ST,47.977619,-122.201675,2886
2887,BROADWAY and PACIFIC AVENUE,47.977039,-122.201347,2887
2905,PERIMETER RD and SEAWAY BLVD,47.932472,-122.261124,2905
2906,CEDAR ST and HEWITT AVE,47.978661,-122.193924,2906
2913,AIRPORT RD and KASCH PARK RD,47.917839,-122.271843,2913
2977,BOEING GATE E-67,47.916653,-122.276100,2977
3000,COLBY AVE and 41ST ST,47.962868,-122.208015,3000
3006,CEDAR ST and HEWITT,47.978477,-122.193764,3006
3010,RUCKER AVE and 41ST ST,47.962395,-122.210938,3010
3020,40th ST and GRAND AVE,47.963127,-122.212364,3020
3030,E MUKILTEO BLVD and 42ND ST,47.962093,-122.218979,3030
3035,E MUKILTEO BLVD and FOREST PARK DR,47.959896,-122.224930,3035
3040,E MUKILTEO BLVD and 42ND ST,47.962128,-122.219803,3040
3045,E MUKILTEO BLVD and PIGEON CREEK RD,47.959866,-122.225151,3045
3060,ELM ST and 45TH ST SW,47.958183,-122.233047,3060
3065,OLYMPIC BLVD and W MUKILTEO BLVD,47.957462,-122.231728,3065
3070,W MUKILTEO BLVD and OLYMPIC BLVD,47.956841,-122.232124,3070
3075,W MUKILTEO BLVD and DOGWOOD AVE,47.956623,-122.231010,3075
3080,DOGWOOD DR and W MUKILTEO BLVD,47.956348,-122.231636,3080
3085,W MUKILTEO BLVD and RIDGEMONT  DR,47.957352,-122.239685,3085
3090,W MUKILTEO BLVD and GLENHAVEN DR,47.957287,-122.239967,3090
3095,W MUKILTEO BLVD and SEAHURST AVE,47.959042,-122.242905,3095
3100,W MUKILTEO BLVD and SEAHURST AVE,47.959328,-122.243004,3100
3105,W MUKILTEO BLVD and GLENWOOD AVE,47.957108,-122.247162,3105
3110,W MUKILTEO BLVD and GLENWOOD AVE,47.957130,-122.247345,3110
3115,W MUKILTEO BLVD and GREELY ST,47.956776,-122.251381,3115
3120,W MUKILTEO BLVD and DOVER,47.957092,-122.252243,3120
3125,W MUKILTEO BLVD and HARBOR LN,47.957134,-122.255814,3125
3130,W MUKILTEO BLVD and HARBOR LN,47.957294,-122.256531,3130
3135,W MUKILTEO BLVD and KIRBY PL,47.954559,-122.261299,3135
3140,W MUKILTEO BLVD and KIRBY PL,47.954906,-122.261101,3140
3145,W MUKILTEO BLVD and 23RD AVE W,47.953602,-122.264091,3145
3150,W MUKILTEO BLVD and 23RD AVE W,47.953506,-122.263596,3150
3155,W MUKILTEO BLVD and SEAVIEW WAY,47.953575,-122.268005,3155
3160,W MUKILTEO BLVD and SEAVIEW WAY,47.953659,-122.267876,3160
3165,W MUKILTEO BLVD and GARDNER AVE,47.953720,-122.274124,3165
3168,EVERGREEN WAY and 75TH ST SE,47.930401,-122.220459,3168
3170,W MUKILTEO BLVD and OCEAN AVE,47.953461,-122.275299,3170
3175,W MUKILTEO BLVD and 33RD AVE W,47.953148,-122.277458,3175
3180,W MUKILTEO BLVD and 33RD AVE W,47.953037,-122.277550,3180
3185,W MUKILTEO BLVD and SOUND AVE,47.952499,-122.280098,3185
3190,W MUKILTEO BLVD and SOUND AVE,47.952541,-122.280716,3190
3195,W MUKILTEO BLVD and UPLAND AVE,47.952110,-122.282730,3195
3200,W MUKILTEO BLVD and UPLAND AVE,47.952114,-122.283112,3200
3205,W MUKILTEO BLVD and LAMAR DR,47.950417,-122.287445,3205
3210,W MUKILTEO BLVD and MUKILTEO LANE,47.950726,-122.286995,3210
3215,5TH ST and PROSPECT AVE,47.946346,-122.294281,3215
3220,5TH ST and PROSPECT AVE,47.946453,-122.294273,3220
3225,5TH ST and LOVELAND AVE,47.945477,-122.299377,3225
3235,5TH ST and LOVELAND AVE,47.945534,-122.298630,3235
3240,5TH ST and LINCOLN AVE,47.944862,-122.302513,3240
3245,5TH ST and LINCOLN AVE,47.944824,-122.303268,3245
3250,MUKILTEO SPEEDWAY and FRONT ST,47.948753,-122.304550,3250
3255,RUCKER AVE and 43RD ST SE,47.961098,-122.210495,3255
3260,COLBY AVE and 43RD ST,47.961151,-122.207733,3260
3265,COLBY AVE and 43RD ST,47.960579,-122.207924,3265
3270,EVERGREEN WAY and 44TH ST SE,47.959042,-122.211395,3270
3275,COLBY AVE and 45TH ST SE,47.958508,-122.207970,3275
3285,EVERGREEN WAY and 47TH ST SE,47.955006,-122.213272,3285
3290,EVERGREEN WAY and WILMINGTON AVE,47.954678,-122.212982,3290
3295,COLBY AVE and 47TH ST SE,47.956108,-122.207573,3295
3300,COLBY AVE and 47TH ST SE,47.955601,-122.207680,3300
3305,COLBY AVE and 50TH ST SE,47.951977,-122.206879,3305
3310,COLBY AVE and 50TH ST SE,47.951481,-122.207008,3310
3315,EVERGREEN WAY and 50TH ST SE,47.952198,-122.213394,3315
3320,EVERGREEN WAY and 50TH ST SE,47.951431,-122.213928,3320
3325,EVERGREEN WAY and 52ND ST SE,47.949707,-122.214172,3325
3330,COLBY AVE and 52ND ST SE,47.949917,-122.206535,3330
3335,DOGWOOD DR and 48TH ST SW,47.954609,-122.231316,3335
3340,DOGWOOD DR and 48TH ST SW,47.954739,-122.231544,3340
3345,DOGWOOD DR and ALDER ST,47.952290,-122.230972,3345
3350,DOGWOOD DR and 50TH ST SW,47.952000,-122.230835,3350
3360,BEVERLY LANE and SUNSET LANE,47.947914,-122.228737,3360
3365,BEVERLY LANE and SUNSET LANE,47.947956,-122.228973,3365
3370,BEVERLY LANE and 58TH ST SE,47.945599,-122.228531,3370
3375,BEVERLY LANE and HIGHLAND RD,47.945107,-122.228622,3375
3380,BROOKRIDGE BLVD and 1ST AVE SE,47.945110,-122.233078,3380
3383,BROOKRIDGE BLVD and 59TH PL SE,47.944462,-122.231522,3383
3385,BROOKRIDGE BLVD and 60TH PL SE,47.944618,-122.235260,3385
3390,BROOKRIDGE BLVD and 1ST DR W,47.944584,-122.235733,3390
3395,BROOKRIDGE BLVD and 3RD DR W,47.944096,-122.237816,3395
3400,BROOKRIDGE BLVD and 4TH DR W,47.944519,-122.239326,3400
3405,BROOKRIDGE BLVD and SEAHURST AVE,47.944378,-122.240608,3405
3410,MERRILL CREEK PARKWAY and GLENWOOD,47.943886,-122.244019,3410
3415,MERRILL CREEK PARKWAY and GLENWOOD,47.944168,-122.243713,3415
3420,MERRILL CREEK PARKWAY and 13TH AVE W,47.943562,-122.250526,3420
3425,MERRILL CREEK PARKWAY and 13TH AVE W,47.943729,-122.251884,3425
3430,MERRILL CREEK PARKWAY and HARDESON ROAD,47.943165,-122.254944,3430
3440,HARDESON ROAD and MERRILL CREEK PARKWAY,47.942211,-122.255882,3440
3442,MERRILL CREEK PARKWAY and HARDESON RD,47.942574,-122.256561,3442
3443,MERRILL CREEK PKWAY and 20TH AVE W,47.941490,-122.259933,3443
3445,MERRILL CREEK PARKWAY and 20TH AVE W,47.941109,-122.261108,3445
3446,MERRILL CREEK PARKWAY and 64TH ST,47.941044,-122.266434,3446
3447,MERRILL CREEK PARKWAY and 23RD AVE W,47.941204,-122.264244,3447
3450,MERRILL CREEK PARKWAY and 23RD DR W,47.941074,-122.263741,3450
3455,MERRILL CREEK PARKWAY and 64TH ST,47.939396,-122.267647,3455
3457,MERRILL CREEK PARKWAY and SEAWAY BLVD,47.938816,-122.267845,3457
3473,74th ST SW and SEAWAY BLVD,47.930759,-122.260063,3473
3475,MERRILL CREEK PARKWAY and SEAWAY BLVD,47.937729,-122.267685,3475
3479,HARDESON RD and SHUKSAN WAY,47.935936,-122.251656,3479
3480,SEAWAY BLVD and 24TH AVE W,47.937122,-122.265083,3480
3483,SEAWAY BLVD and MERRILL CREEK PKWY,47.936790,-122.264267,3483
3484,HARDESON RD and VERALENE WAY,47.929497,-122.246628,3484
3485,SEAWAY BLVD and FLUKE DR,47.935009,-122.261711,3485
3486,SEAWAY BLVD and FLUKE DR,47.934296,-122.261505,3486
3490,BROOKRIDGE BLVD and 1ST PL SE,47.942631,-122.230827,3490
3495,BROOKRIDGE BLVD and 1ST DR SE,47.941959,-122.229507,3495
3500,BEVERLY LANE and PECKS,47.941090,-122.228622,3500
3505,BEVERLY LANE and PECKS,47.941193,-122.228455,3505
3536,MADISON ST and CADY RD,47.936401,-122.222633,3536
3537,MADISON ST and MORGAN RD,47.936317,-122.224342,3537
3538,500 MADISON ST,47.936474,-122.225853,3538
3545,BEVERLY LANE and E BEECH ST,47.938454,-122.228508,3545
3548,BEVERLY LANE and TAMARACK DR,47.938145,-122.228348,3548
3550,BEVERLY LANE and MADISON ST,47.936962,-122.228485,3550
3555,BEVERLY LANE and MADISON,47.935951,-122.228325,3555
3565,BEVERLY LANE and S CABOT RD,47.934513,-122.228447,3565
3567,BEVERLY LANE and 72ND ST SE,47.932751,-122.228470,3567
3570,BEVERLY LANE and 72ND ST SE,47.932430,-122.228432,3570
3575,BEVERLY LANE and 75TH ST SE,47.930183,-122.228424,3575
3580,BEVERLY LANE and 75TH ST SE,47.929859,-122.228531,3580
3585,BEVERLY LANE and 77TH ST SE,47.927353,-122.228378,3585
3590,BEVERLY LANE and 78TH ST SE,47.926983,-122.228249,3590
3595,78th Pl SE and EVERGREEN WAY,47.925915,-122.227013,3595
3600,78th PL and EVERGREEN WAY,47.926029,-122.226898,3600
3605,EVERGREEN WAY and BRUIN BLVD,47.928116,-122.222054,3605
3610,EVERGREEN WAY and BRUIN BLVD,47.927605,-122.222954,3610
3615,EVERGREEN WAY and 75TH ST SE,47.929794,-122.221146,3615
3620,EVERGREEN WAY and 74TH ST SE,47.931664,-122.220436,3620
3622,EVERGREEN WAY and 72ND ST SE,47.933464,-122.219597,3622
3625,EVERGREEN WAY and MADISON ST,47.934776,-122.219582,3625
3628,EVERGREEN WAY and MADISON ST,47.936691,-122.218719,3628
3630,EVERGREEN WAY and 65TH ST SE,47.938950,-122.218468,3630
3635,EVERGREEN WAY and PECKS DR,47.940998,-122.217903,3635
3638,EVERGREEN WAY and BERKSHIRE DR,47.940845,-122.217575,3638
3640,EVERGREEN WAY and 59TH ST SE,47.944065,-122.217079,3640
3642,EVERGREEN WAY and 57TH ST SE,47.946102,-122.215736,3642
3645,EVERGREEN WAY and 57TH ST SE,47.945747,-122.216324,3645
3647,EVERGREEN WAY and HIGHWAY PL,47.947472,-122.215164,3647
3650,EVERGREEN WAY and 52ND ST SE,47.949139,-122.214790,3650
3660,HARDESON ROAD and 64TH ST SW,47.939804,-122.254402,3660
3663,HARDESON ROAD and MERRILL CREEK PARKWAY,47.941818,-122.255432,3663
3664,HARDESON ROAD and 65TH ST SW,47.938992,-122.253670,3664
3665,HARDESON ROAD and 70TH ST SW,47.936867,-122.252457,3665
3667,HARDESON RD and SHUKSAN WAY,47.934662,-122.250839,3667
3668,HARDESON RD and SHUKSAN WAY,47.934769,-122.251083,3668
3670,HARDESON ROAD and 72ND ST SW,47.933750,-122.250427,3670
3673,HARDESON ROAD and 75TH ST SW,47.930996,-122.248734,3673
3675,HARDESON ROAD and 75TH ST SW,47.929947,-122.247856,3675
3676,75TH ST SW and 16TH AVE W,47.929771,-122.255386,3676
3677,75TH ST SW and 16TH AVE W,47.929630,-122.254860,3677
3680,74th ST SW and SEAWAY BLVD,47.930962,-122.260078,3680
3705,HARDESON RD and 7700 BLK,47.928131,-122.243187,3705
3710,HARDESON RD and 7700 BLK,47.927803,-122.243195,3710
3715,HARDESON RD and 80TH ST SW,47.925133,-122.240807,3715
3720,HARDESON RD and UPPER RIDGE RD,47.924408,-122.240303,3720
4000,S 3RD AVE and 42ND ST,47.962578,-122.197662,4000
4005,S 3RD AVE and 42TH ST,47.961750,-122.197357,4005
4007,BROADWAY and 45TH ST SE,47.956657,-122.200432,4007
4008,BROADWAY and 45TH ST SE,47.956982,-122.200584,4008
4010,S 3RD AVE and 43RD ST,47.960789,-122.197449,4010
4015,S 3RD AVE and 44TH ST,47.959927,-122.197166,4015
4020,S 3RD AVE and 45TH ST,47.957794,-122.197067,4020
4025,S 3RD AVE and 46TH ST,47.956959,-122.196838,4025
4030,S 2ND AVE and 49TH ST,47.953583,-122.195374,4030
4035,S 2ND AVE and 49TH ST,47.953579,-122.195114,4035
4040,S 2ND AVE and EUGENE ST,47.951622,-122.194763,4040
4045,S 2ND AVE and EUGENE ST,47.951290,-122.194916,4045
4050,S 2ND AVE and MAIN ST,47.948769,-122.194618,4050
4060,S 2ND AVE and ZILLAH ST,47.947975,-122.194359,4060
4065,LOWELL ROAD and S 3RD AVE,47.947628,-122.195969,4065
4070,COLBY AVE and 52ND ST SE,47.949081,-122.206673,4070
4075,COLBY AVE and 55TH ST SE,47.947887,-122.206535,4075
4085,COLBY AVE and FAIRFAX AVE,47.945900,-122.206749,4085
4090,COLBY AVE and 60TH ST SE,47.943546,-122.206696,4090
4095,COLBY AVE and 60TH ST SE,47.943062,-122.206886,4095
4100,BEVERLY BLVD and WETMORE AVE,47.940952,-122.206879,4100
4105,BEVERLY BLVD and 63RD ST SE,47.939980,-122.207741,4105
4110,BEVERLY BLVD and PALM AVE,47.938042,-122.209091,4110
4115,BEVERLY BLVD and PALM AVE,47.937920,-122.209442,4115
4120,BEVERLY BLVD and MADISON,47.936707,-122.210182,4120
4125,MADISON ST and BEVERLY BLVD,47.936176,-122.210083,4125
4130,BEVERLY BLVD and MADISON,47.935978,-122.211029,4130
4135,MADISON ST and BEVERLY BLVD,47.936337,-122.209892,4135
4140,MADISON ST and HIGHLAND DR,47.936295,-122.213493,4140
4143,BEVERLY BLVD and 72ND ST SE,47.932911,-122.212456,4143
4145,MADISON ST and OLYMPIC DR,47.936131,-122.214363,4145
4148,MADISON ST and BERKSHIRE DR,47.936272,-122.217255,4148
4150,MADISON ST and RAINIER DR,47.936119,-122.217804,4150
4151,RIDGEWOOD DR and TIMBER HILL DR,47.927952,-122.198456,4151
4154,LARLIN DR and PANAVIEW BLVD,47.927521,-122.193184,4154
4155,BEVERLY BLVD and 72ND ST SE,47.933014,-122.212624,4155
4156,SUNRISE DR and PANAVIEW BLVD,47.928417,-122.194839,4156
4157,PANAVIEW BLVD and LARLIN DR,47.926178,-122.197289,4157
4158,75TH ST SE and MCDOUGALL AVE,47.930107,-122.199600,4158
4159,75TH ST SE and MCDOUGALL AVE,47.930008,-122.199715,4159
4160,MADISON ST and COMMERCIAL AVE,47.936172,-122.205971,4160
4161,BROADWAY and 74TH ST SE,47.930912,-122.202408,4161
4162,BROADWAY and 75TH ST SE,47.930424,-122.202492,4162
4164,BROADWAY and 73RD ST SE,47.932426,-122.201385,4164
4165,MADISON ST and COMMERCIAL AVE,47.936317,-122.205376,4165
4168,BROADWAY and ADAMS AVE,47.934925,-122.200012,4168
4169,BROADWAY and MONROE AVE,47.933384,-122.201042,4169
4170,MADISON ST and JEFFERSON AVE,47.936157,-122.203285,4170
4175,MADISON ST and JEFFERSON AVE,47.936310,-122.203499,4175
4177,BROADWAY and MADISON ST,47.935688,-122.199821,4177
4180,BROADWAY and MELVIN AVE,47.938992,-122.199524,4180
4185,BROADWAY and HOWARD AVE,47.937748,-122.199219,4185
4190,BROADWAY and 62ND ST SE,47.941807,-122.199654,4190
4195,BROADWAY and 62ND ST SE,47.941444,-122.199486,4195
4200,BROADWAY and 60TH ST SE,47.943081,-122.199753,4200
4205,BROADWAY and 60TH ST SE,47.943588,-122.199608,4205
4210,BROADWAY and 56TH ST SE,47.945213,-122.199867,4210
4215,BROADWAY and 56TH ST SE,47.946175,-122.199760,4215
4220,BROADWAY and 53RD ST SE,47.948467,-122.200081,4220
4223,BROADWAY and 52ND ST SE,47.948925,-122.199951,4223
4230,BEVERLY BLVD and 75TH ST SE,47.929821,-122.212059,4230
4231,BROADWAY and 79TH ST SE,47.927402,-122.204117,4231
4232,BROADWAY and 79TH ST SE,47.925671,-122.205231,4232
4235,BEVERLY BLVD and 75TH ST SE,47.929943,-122.211899,4235
4239,E CASINO RD and HIGHLAND DR,47.927341,-122.212830,4239
4240,E CASINO RD and HIGHLAND DR,47.927647,-122.212570,4240
4245,E CASINO RD and RAINIER DR,47.926056,-122.214691,4245
4248,BEVERLY BLVD and BROADWAY,47.922401,-122.207245,4248
4249,BROADWAY and BEVERLY BLVD,47.922558,-122.206680,4249
4250,E CASINO RD and RAINIER DR,47.925846,-122.215515,4250
4255,E CASINO RD and XAVIER WAY,47.925076,-122.217201,4255
4260,E CASINO RD and XAVIER WY,47.925056,-122.216911,4260
4270,E CASINO RD and 8TH AVE SE,47.923294,-122.221207,4270
4280,E CASINO RD and 8TH AVE SE,47.923046,-122.221390,4280
5000,W CASINO RD and AIRPORT RD,47.920189,-122.270279,5000
5005,W CASINO RD and AIRPORT RD,47.920021,-122.269264,5005
5007,AIRPORT RD and KASCH PARK RD,47.917892,-122.271477,5007
5011,AIRPORT RD and 94TH ST SW,47.913780,-122.271461,5011
5015,W CASINO RD and 23RD AVE W,47.920120,-122.265045,5015
5020,W CASINO RD and 23RD AVE W,47.919960,-122.264946,5020
5025,W CASINO RD and 84TH ST SW,47.921093,-122.262970,5025
5030,W CASINO RD and 84TH ST SW,47.921112,-122.262650,5030
5035,W CASINO RD and 18TH AVE W,47.921925,-122.258560,5035
5040,W CASINO RD and 18TH AVE W,47.921776,-122.257492,5040
5045,W CASINO RD and SOMERSET DR,47.921753,-122.252716,5045
5050,W CASINO RD and SOMERSET DR,47.921883,-122.253006,5050
5055,W CASINO RD and HALL PARK RD,47.921707,-122.250664,5055
5060,W CASINO RD and HALL PARK RD,47.921867,-122.250206,5060
5065,W CASINO RD and 10TH AVE W,47.921734,-122.247215,5065
5070,W CASINO RD and 10TH AVE W,47.921867,-122.246834,5070
5075,W CASINO RD and 8TH AVE W,47.921757,-122.243141,5075
5080,W CASINO RD and 8TH AVE W,47.921906,-122.243462,5080
5085,W CASINO RD and 5TH AVE W,47.921932,-122.241547,5085
5087,W CASINO RD and 5TH AVE W,47.921741,-122.241066,5087
5090,W CASINO RD and UPPER RIDGE RD,47.921764,-122.238983,5090
5095,W CASINO RD and UPPER RIDGE RD,47.921967,-122.237831,5095
5100,W CASINO RD and 2ND AVE W,47.921776,-122.236473,5100
5105,W CASINO RD and 2ND AVE W,47.921997,-122.236084,5105
5110,E CASINO RD and MERIDIAN AVE,47.922009,-122.233253,5110
5115,E CASINO RD and EVERGREEN WAY,47.921822,-122.230522,5115
5120,E CASINO RD and EVERGREEN WAY,47.922062,-122.228806,5120
5125,EVERGREEN WAY and EAST CASINO RD,47.921024,-122.229080,5125
5130,EVERGREEN WAY and E CASINO RD,47.921398,-122.228302,5130
5132,E CASINO RD and EVERGREEN WAY,47.921860,-122.226685,5132
5135,EVERGREEN WAY and 8599,47.920033,-122.229599,5135
5136,EVERGREEN WAY and 86TH ST SE,47.918808,-122.231155,5136
5145,EVERGREEN WAY and HOLLY DR,47.916683,-122.232735,5145
5150,EVERGREEN WAY and HOLLY DR - SB,47.915794,-122.234001,5150
5155,EVERGREEN WAY and 92ND ST SE,47.914165,-122.235107,5155
5160,EVERGREEN WAY and 92ND ST SW,47.913780,-122.235878,5160
5170,EVERGREEN WAY and W INTERCITY AVE,47.912388,-122.236755,5170
5175,EVERGREEN WAY and W INTERCITY AVE,47.912201,-122.237358,5175
5180,EVERGREEN WAY and W MARILYN AVE,47.911091,-122.237961,5180
5185,EVERGREEN WAY and 4TH AVE W,47.909752,-122.239639,5185
5190,EVERGREEN WAY and 100TH ST SW,47.906788,-122.242416,5190
5195,EVERGREEN WAY and OLIVIA PARK RD,47.903507,-122.245445,5195
5200,EVERGREEN WAY and 108TH ST SW,47.900677,-122.248108,5200
5205,EVERGREEN WAY and 110TH ST SE,47.898159,-122.250504,5205
5206,111th ST SW and EVERGREEN WAY,47.896523,-122.250496,5206
5210,EVERGREEN WAY and 112TH ST SW,47.895325,-122.253098,5210
5212,111th ST SW and 16TH AVE W,47.896523,-122.255211,5212
5213,111th ST SW and 17TH CT SW,47.896320,-122.255882,5213
5215,99th ST SW and EVERGREEN WAY,47.907379,-122.242783,5215
5216,111th ST SW and PAINE FIELD WAY,47.896523,-122.258713,5216
5217,111th ST SW and AIRPORT RD,47.896385,-122.262512,5217
5220,99th ST SW and HOLLY DR,47.907379,-122.247772,5220
5225,99th ST SW and 12TH AVE W,47.907433,-122.249977,5225
5230,99th ST SW and 15TH AVE W,47.907433,-122.254379,5230
5235,99th ST SW and 18TH AVE W,47.907532,-122.257652,5235
5240,99th ST SW and 23RD AVE W,47.907562,-122.266144,5240
5245,99th ST SW and AIRPORT  RD,47.907578,-122.269051,5245
5265,AIRPORT RD and 112TH ST SW,47.896420,-122.263542,5265
5281,111th ST SE and 4TH AVE W,47.896549,-122.239685,5281
5283,111th ST SW and 8TH AVE W,47.896545,-122.245110,5283
5288,AIRPORT RD and EVERGREEN WAY,47.890163,-122.258759,5288
5300,EVERGREEN CENTER,47.894634,-122.256775,5300
5310,EVERGREEN WAY and 116TH,47.892780,-122.255669,5310
6000,7TH AVE SE and 84TH ST SE,47.921455,-122.223000,6000
6005,7TH AVE SE and 84TH ST SE,47.921528,-122.222832,6005
6010,83rd ST SE and 8TH PL SE,47.921799,-122.220604,6010
6015,83rd ST SE and 9TH AVE SE,47.921867,-122.220398,6015
6020,84TH ST SE and XAVIER WAY,47.921875,-122.216766,6020
6025,84TH ST SE and XAVIER WAY,47.921776,-122.216393,6025
6030,83rd ST SE and 14TH AVE SE,47.921101,-122.213570,6030
6035,7TH AVE SE and 87TH ST SE,47.918819,-122.222954,6035
6040,7TH AVE SE and 87TH ST SE,47.919075,-122.222771,6040
6045,7TH AVE SE and 90TH PL SE,47.916317,-122.223541,6045
6050,7TH AVE SE and 90TH PL SE,47.916805,-122.223366,6050
6055,7TH AVE SE and 92ND ST SE,47.914955,-122.223328,6055
6060,7TH AVE SE and 92ND ST SE,47.914772,-122.223488,6060
6065,6th AVE SE and 93RD ST SE,47.913200,-122.223297,6065
6070,6th AVE SE and 94TH ST SE,47.912720,-122.223442,6070
6075,6th AVE SE and SE EVERETT MALL WAY,47.910603,-122.223427,6075
6080,SE EVERETT MALL WAY and 7TH AVE SE,47.909512,-122.224052,6080
6085,6th AVE SE and SE EVERETT MALL WAY,47.910141,-122.223221,6085
6090,SE EVERETT MALL WAY and 7TH AVE SE,47.909748,-122.222176,6090
6095,SE EVERETT MALL WAY and 10TH AVE SE,47.910355,-122.220833,6095
6100,SE EVERETT MALL WAY and 11TH AVE SE,47.910690,-122.218674,6100
6105,SE EVERETT MALL WAY and W MALL DR,47.911255,-122.217476,6105
6125,18th AVE SE and BURLEY DRIVE,47.912827,-122.207169,6125
6130,18th AVE SE and 96TH PL SE,47.910118,-122.207146,6130
6135,18th AVE SE and 98TH ST SE,47.909096,-122.207207,6135
6140,18th AVE SE and 102ND ST SE,47.904533,-122.207138,6140
6145,18th AVE SE and 106TH PL SE,47.900017,-122.206940,6145
6150,18th AVE SE and 110TH ST SE,47.898426,-122.206932,6150
6155,111th ST SE and 19TH AVE SE,47.897091,-122.209038,6155
6160,111th ST SE and 16TH AVE SE,47.896873,-122.211273,6160
6163,111th ST SE and I5,47.896538,-122.216965,6163
6165,111th ST SE and 8TH AVE SE,47.896530,-122.218880,6165
6170,6th AVE SE and 112TH ST SE,47.897129,-122.222969,6170
6175,6th AVE SE and 109TH ST SE,47.899601,-122.223007,6175
6180,6th AVE SE and 106TH ST SE,47.901783,-122.223053,6180
6185,6th AVE SE and BRUSKRUD RD,47.905922,-122.223129,6185
6190,99th ST SE and 7TH AVE SE,47.907360,-122.222672,6190
6195,99th ST SE and 100TH PL SE,47.907383,-122.218529,6195
6200,SILVER LAKE ROAD and 116TH ST SE,47.892262,-122.216072,6200
6205,SILVER LAKE ROAD and 119TH PL SE,47.889721,-122.216003,6205
6210,SILVER LAKE ROAD and 13TH DR SE,47.888023,-122.213425,6210
6215,120th ST SE and 17TH AVE SE,47.887562,-122.209602,6215
6220,120th ST SE and 19TH AVE SE,47.887604,-122.207420,6220
6225,SE EVERETT MALL WAY and 3RD AVE SE,47.908295,-122.227669,6225
6230,SE EVERETT MALL WAY and 3RD AVE SE,47.908199,-122.229012,6230
6235,SE EVERETT MALL WAY and E INTERCITY AVE,47.907383,-122.232086,6235
6238,SE EVERETT MALL WAY and 1ST DR SE,47.906879,-122.232986,6238
6240,SW EVERETT MALL WAY and 1ST PL W,47.906597,-122.235001,6240
6244,SW EVERETT MALL WAY and 4TH AVE W,47.905827,-122.237953,6244
6245,SW EVERETT MALL WAY and 4TH AVE W,47.905758,-122.237228,6245
6247,18th AVE SE and 116TH ST SE,47.892578,-122.204277,6247
6265,EVERGREEN WAY and SW EVERETT MALL WAY,47.904819,-122.243813,6265
6268,2nd AVE SE and SE EVERETT MALL WAY,47.907291,-122.228348,6268
6270,EVERGREEN WAY and 100TH ST SW,47.907017,-122.241760,6270
6272,3RD AVE SE and 102ND ST SE,47.904507,-122.228233,6272
6273,3RD AVE SE and 102ND ST SE,47.904522,-122.228111,6273
6275,2nd AVE SE and 106TH ST SE,47.901775,-122.228012,6275
6276,2nd AVE SE and 108TH ST SE,47.900429,-122.228119,6276
6277,EVERGREEN WAY and 4TH AVE W,47.909397,-122.239548,6277
6278,2nd AVE SE and 109TH PL SE,47.898369,-122.228111,6278
6279,2nd AVE SE and 112TH ST SW,47.897064,-122.227989,6279
6282,3rd AVE W and 116TH PL SW,47.891907,-122.238731,6282
6284,3rd AVE W and 120TH ST SW,47.889709,-122.238716,6284
6288,3rd AVE W and 124TH ST SW,47.886097,-122.238693,6288
6291,111th ST SW and 4TH AVE W,47.896389,-122.237808,6291
6292,112TH ST SE and MERIDIAN AVE,47.896591,-122.233627,6292
6293,112TH ST SE and MERIDIAN AVE,47.896389,-122.233002,6293
6295,EVERGREEN WAY  and 112TH ST SW,47.897346,-122.250740,6295
6296,111th ST SE and 2ND AVE SE,47.896584,-122.229637,6296
6305,99th ST SE and 7TH AVE SE,47.907463,-122.222733,6305
6310,99th ST SE and 100TH PL SE,47.907482,-122.218002,6310
6315,6th AVE SE and 103RD PL SE,47.904438,-122.223305,6315
6320,6th AVE SE and 105TH PL SE,47.902546,-122.223251,6320
6325,6th AVE SE and 110TH ST SE,47.898098,-122.223152,6325
6330,111th ST SE and 9TH AVE SE,47.896328,-122.219177,6330
6331,South Everett Freeway Station - Bay 1,47.899570,-122.214195,6331
6332,South Everett Freeway Station - Bay 4,47.899521,-122.213989,6332
6335,111th ST SE and SILVER LAKE ROAD,47.896587,-122.212898,6335
6337,111th ST SE and 16TH AVE SE,47.896862,-122.209824,6337
6340,SILVER LAKE ROAD and SILVER LAKE BEACH,47.894531,-122.214882,6340
6343,SILVER LAKE ROAD and SILVER LAKE BEACH,47.894600,-122.214729,6343
6345,SILVER LAKE ROAD and 116TH ST SE,47.892216,-122.216179,6345
6350,120th ST SE and SILVER LAKE RD,47.888184,-122.213516,6350
6355,120th ST SE and SILVER LAKE DR,47.887814,-122.211189,6355
6365,18th AVE SE and 110TH ST SE,47.898514,-122.206688,6365
6370,18th AVE SE and 105TH ST SE,47.903145,-122.206863,6370
6375,18th AVE SE and 102ND ST SE,47.904812,-122.206848,6375
6377,18th AVE SE and 101ST ST SE,47.905743,-122.207153,6377
6380,18th AVE SE and 100TH ST SE,47.907520,-122.206879,6380
6388,18th AVE SE and 96TH ST SE,47.910931,-122.206917,6388
6390,18th AVE SE and BURLEY DRIVE,47.912968,-122.206863,6390
6394,MALL STATION - BAY 2,47.907703,-122.213547,6394
6395,MALL STATION - BAY 1,47.908062,-122.213577,6395
6397,99th ST and WEST MALL DR,47.907757,-122.216728,6397
6402,19TH AVE SE and 113TH ST SE,47.895611,-122.204926,6402
6405,19TH AVE SE and 113TH ST SE,47.895763,-122.204758,6405
6410,18th AVE SE and 116TH ST SE,47.893021,-122.203178,6410
6420,18th AVE SE and LAKE HEIGHTS RD,47.891228,-122.205505,6420
6425,18th AVE SE and 121ST ST SE,47.887970,-122.206505,6425
6430,120th ST SE and 19TH AVE SE,47.887730,-122.207458,6430
7375,84TH ST SW and 44TH AVE W,47.922153,-122.293472,7375
7380,84TH ST SW and 44TH AVE W,47.922016,-122.292786,7380
