stop_id,stop_code,stop_name,stop_desc,stop_lat,stop_lon,zone_id,stop_url,location_type,parent_station,stop_timezone
770539,,Hemlock & 10th,,46.13459887,-122.9310785,0,,0,,
770540,,Beech & 15th,,46.1212962,-122.946458,0,,0,,
770541,,46th & Ocean Beach Hwy,,46.16407532,-123.0001588,0,,0,,
770542,,Ocean Beach Hwy & 48th,,46.16629392,-123.004835,,,0,,
770543,,Finch & Woodthrush,,46.17748561,-123.0134609,0,,0,,
770544,,Robbins & Finch,,46.17523433,-123.0131732,0,,0,,
770545,,Ocean Beach Hwy. & Mt Solo,,46.1710522,-123.0151456,,,0,,
770546,,Ocean Beach Hwy & 48th,,46.16592389,-123.0047964,,,0,,
770547,,Ocean Beach Hwy & 46th,,46.16365749,-123.000148,,,0,,
770548,,Ocean Beach Hwy & 44th,,46.16158295,-122.9959044,,,0,,
770549,,Ocean Beach Hwy & 42nd,,46.15946954,-122.9916641,,,0,,
770550,,Beech & 19th,,46.12375233,-122.9515014,0,,0,,
770551,,Ocean Beach Hwy & 40th,,46.15740168,-122.9874337,,,0,,
770552,,Walmart,,46.15524185,-122.9830523,,,0,,
770553,,Ocean Beach Hwy & 34th,,46.15110901,-122.9746655,,,0,,
770554,,Ocean Beach Hwy & 28th,,46.14708691,-122.9574877,,,0,,
770555,,Louisiana & 25th,,46.1420032,-122.9494239,0,,0,,
770556,,Louisiana & 22nd,,46.1411952,-122.9455178,0,,0,,
770557,,20th & Larch,,46.13969599,-122.9438229,0,,0,,
770558,,Florida & 17th,,46.13468803,-122.9411675,0,,0,,
770559,,Florida & 15th,,46.13441514,-122.9398762,0,,0,,
770560,,Alabama & 22nd,,46.12324669,-122.9560999,0,,0,,
770561,,Heron Pointe,,46.17482997,-123.0225996,,,0,,
770562,,Alabama & 24th,,46.12415214,-122.9581733,0,,0,,
770563,,Ocean Beach Hwy. & 32nd,,46.14784405,-122.9664333,,,0,,
770564,,Washington  & 15th,,46.14037496,-122.9361769,0,,0,,
770565,,Washington  & 11th,,46.14281903,-122.9305093,0,,0,,
770566,,Cowlitz & 5th,,46.14713768,-122.9194024,0,,0,,
770567,,Amtrak/Greyhound,,46.14258023,-122.913015,,,0,,
770568,,Three Rivers Mall,,46.13929992,-122.9014357,,,0,,
770569,,Three Rivers Mall & Safeway,,46.14114237,-122.9015756,,,0,,
770570,,Cowlitz & 3rd,,46.14701701,-122.9097269,0,,0,,
770571,,Cowlitz & Long,,46.1473484951304,-122.920059851521,,,0,,
770572,,Alabama & 26th,,46.12508103,-122.9602312,0,,0,,
770573,,Ocean Beach Hwy & 8th,,46.14650752,-122.9258431,0,,0,,
770574,,Ocean Beach Hwy & 28th,,46.14739565,-122.958087,,,0,,
770575,,Walmart,,46.15574386,-122.9834064,,,0,,
770576,,Ocean Beach Hwy & 52nd,,46.16926902,-123.0109336,0,,0,,
770577,,Hudson & 10th,,46.13616667,-122.93045,0,,0,,
770578,,Hudson & 7th,,46.13538556,-122.9263756,0,,0,,
770579,,3rd  & Hudson,,46.13496396,-122.9225789,0,,0,,
770580,,3rd  & Peardale,,46.138884,-122.9192496,0,,0,,
770581,,Hall of Justice,,46.14306571,-122.9170708,,,0,,
770582,,Alabama & 28th,,46.12604883,-122.9624667,0,,0,,
770583,,8th & Vine,,46.14227388,-122.9052554,,,0,,
770584,,Cowlitz  & Long,,46.14732363,-122.9202913,0,,0,,
770585,,Mark Morris H.S.,,46.14393381,-122.9346728,,,0,,
770586,,15th & Fir,,46.13258123,-122.9392404,0,,0,,
770587,,32nd & Cypress,,46.12913002,-122.9653594,0,,0,,
770588,,Pacific & Harris,,46.14993307,-122.9093973,0,,0,,
770589,,Pacific & 1st,,46.15276482,-122.9098095,0,,0,,
770590,,Barnes & Pacific,,46.15923477,-122.9125893,0,,0,,
770591,,Barnes & 4th,,46.15920766,-122.9085621,0,,0,,
770592,,Bowmont & Croy,,46.1570896,-122.9056333,0,,0,,
770593,,2nd  & Division,,46.15566113,-122.9089043,0,,0,,
770594,,Redpath & 5th,,46.15394457,-122.9058716,0,,0,,
770595,,32nd & Douglas,,46.13112823,-122.9660451,0,,0,,
770596,,Crawford & N. Pacific ,,46.14787444,-122.9101245,,,0,,
770597,,Crawford & 5th,,46.1472316014367,-122.907441611639,,,0,,
770598,,7th  & Columbia,,46.14750272,-122.9049677,0,,0,,
770599,,7th  & Burcham,,46.15023604,-122.9039587,0,,0,,
770600,,Mt Brynion & Minor,,46.15218333,-122.90015,0,,0,,
770601,,Burcham & Bloyd,,46.15068407,-122.89944,0,,0,,
770602,,18th & Bloyd,,46.15119699,-122.8930532,0,,0,,
770603,,Sunrise & 22nd,,46.15210092,-122.8881223,0,,0,,
770604,,Sunrise & 24th,,46.15169087,-122.8852602,0,,0,,
770605,,Corduroy & Allen,,46.145075,-122.8794183,0,,0,,
770606,,32nd & Dover,,46.13393415,-122.9669209,0,,0,,
770607,,Allen & Crescent,,46.14550246,-122.8855139,0,,0,,
770608,,Allen & Bates,,46.14498214,-122.8905504,,,0,,
770609,,Allen & Allen,,46.14373257,-122.9035777,0,,0,,
770610,,Mill  & 12th,,46.13754493,-122.9032554,0,,0,,
770611,,Mill  & 8th,,46.13754581,-122.9075048,0,,0,,
770612,,7th  & Elm,,46.13479459,-122.9098274,0,,0,,
770613,,32nd & Florida,,46.13636247,-122.9677839,0,,0,,
770614,,Walnut & 7th,,46.13074568,-122.9109345,0,,0,,
770615,,Walnut & 11th,,46.13077515,-122.9067684,0,,0,,
770616,,Hazel & 13th,,46.12596094,-122.9008048,0,,0,,
770617,,Pacific & Hawthorne,,46.1276134217654,-122.912819066934,,,0,,
770618,,Pacific & Elm,,46.13568686,-122.9145695,0,,0,,
770619,,Pacific & Mill,,46.13766047,-122.9138445,0,,0,,
770620,,Pacific & Cherry,,46.13899338,-122.9133571,0,,0,,
770621,,Pacific & Cherry,,46.13925362,-122.9135098,0,,0,,
770622,,Pacific & Mill,,46.13737535,-122.9141883,0,,0,,
770623,,7th  & Hemlock,,46.13388372,-122.9274023,0,,0,,
770624,,32nd & Hudson,,46.13976755,-122.9664319,0,,0,,
770625,,Pacific & Elm,,46.13554615,-122.9148721,0,,0,,
770626,,Hazel & mid-block,,46.12575381,-122.9086118,0,,0,,
770627,,13th  & Hazel,,46.12599752,-122.9005552,0,,0,,
770628,,Walnut & Clinton,,46.1308679,-122.9022652,0,,0,,
770629,,Walnut & 10th,,46.13086202,-122.9080006,0,,0,,
770630,,7th & Yew,,46.13217504,-122.9105916,,,0,,
770631,,7th  & Elm,,46.1346270201225,-122.909723987137,,,0,,
770632,,Mill  & 8th,,46.13741412,-122.9078884,0,,0,,
770633,,Mill  & 12th,,46.13742215,-122.9036041,0,,0,,
770634,,20th & Alabama,,46.12241381,-122.9541942,,,0,,
770635,,32nd & Maryland,,46.14617955,-122.9663906,0,,0,,
770636,,Allen & Bates,,46.14488196,-122.89203,,,0,,
770637,,Allen & Crescent,,46.14518333,-122.8855,0,,0,,
770638,,Allen & Corduroy,,46.14495851,-122.8795793,0,,0,,
770639,,Sunrise & Miller,,46.15153327,-122.8841014,0,,0,,
770640,,Sunrise & 22nd,,46.15219664,-122.8883742,0,,0,,
770641,,18th & Bloyd,,46.15104402,-122.8928625,0,,0,,
770642,,Burcham & Bloyd,,46.15072809,-122.8992259,0,,0,,
770643,,Mt Brynion & Minor,,46.1521438957063,-122.899823482209,,,0,,
770644,,7th  & Burcham,,46.15024547,-122.9042254,0,,0,,
770645,,7th  & Columbia,,46.14768647,-122.9051532,0,,0,,
770646,,Crawford & 5th,,46.14727791,-122.9071361,0,,0,,
770647,,Kelso  & Burcham,,46.15114701,-122.907983,,,0,,
770648,,Kelso  & Redpath,,46.15385076,-122.9055376,0,,0,,
770649,,2nd  & Division,,46.15565466,-122.9086965,0,,0,,
770650,,Bowmont & Croy,,46.15695853,-122.905569,0,,0,,
770651,,Barnes & 4th,,46.15931876,-122.9084641,0,,0,,
770652,,Barnes & Pacific,,46.15936463,-122.9124861,0,,0,,
770653,,Pacific & 1st,,46.15281009,-122.9101411,0,,0,,
770654,,Pacific & Harris,,46.14992561,-122.9095697,0,,0,,
770655,,Crawford & N. Pacific ,,46.14787391,-122.9104207,,,0,,
770656,,R.A. Long H.S.,,46.14039483,-122.9535291,,,0,,
770657,,Washington  & 32nd,,46.13242566,-122.966451,0,,0,,
770658,,32nd & Douglas,,46.13121425,-122.9663095,0,,0,,
770659,,32nd & Cypress,,46.12897611,-122.9655607,0,,0,,
770660,,Alabama & 28th,,46.12601804,-122.9627619,0,,0,,
770661,,7th  & Delaware,,46.12880946,-122.9294646,0,,0,,
770662,,Alabama & 26th,,46.12493565,-122.960384,0,,0,,
770663,,Alabama & 24th,,46.1240327,-122.9582993,0,,0,,
770664,,Alabama & 22nd,,46.12310325,-122.9562358,0,,0,,
770665,,Alabama & 20th,,46.12226791,-122.9543341,0,,0,,
770666,,Beech & 19th,,46.12347124,-122.9515249,0,,0,,
770667,,Beech & 15th,,46.12150381,-122.9477546,0,,0,,
770668,,Baltimore & 14th,,46.12287287,-122.942949,0,,0,,
770669,,Baltimore & California,,46.12281706,-122.9378141,0,,0,,
770670,,7th  & Wal-Mart,,46.1209091,-122.9328123,0,,0,,
770671,,7th & Wheeler,,46.12246437,-122.9316354,,,0,,
770672,,11th  & Tennant,,46.12560995,-122.9363523,0,,0,,
770673,,9th  & Tennant,,46.12472125,-122.93355,0,,0,,
770674,,11th  & Tennant,,46.12756959,-122.9352967,0,,0,,
770675,,7th  & Delaware,,46.1286346,-122.9292517,0,,0,,
770676,,7th  & Florida,,46.13208132,-122.9278675,0,,0,,
770677,,Florida & 10th,,46.13301667,-122.931733,0,,0,,
770679,,Broadway & 11th,,46.13768525,-122.9312244,0,,0,,
770680,,Broadway & 9th,,46.13723015,-122.9288673,0,,0,,
770681,,7th  & Broadway,,46.1370315,-122.9258498,0,,0,,
770682,,7th  & New York,,46.14065693,-122.9244325,0,,0,,
770683,,9th  & Tennant,,46.12383683,-122.9341342,0,,0,,
770684,,Vandercook  & 9th,,46.14370644,-122.9263665,0,,0,,
770685,,9th  & Washington,,46.14467016,-122.927207,0,,0,,
770686,,15th & Commerce,,46.14224091,-122.9353598,0,,0,,
770687,,15th & Broadway,,46.13867801,-122.9367904,0,,0,,
770688,,15th & Hemlock,,46.13613253,-122.9378036,0,,0,,
770689,,St. John's Hospital,,46.1291102,-122.9406428,,,0,,
770690,,Kessler & 20th,,46.13068347,-122.9463731,0,,0,,
770691,,20th & Cypress,,46.12760505,-122.9494344,0,,0,,
770692,,20th & Beech,,46.12429365,-122.95249,0,,0,,
770693,,Wheeler & 7th,,46.12254442,-122.9319015,,,0,,
770694,,Beech & 23rd,,46.12535688,-122.9550992,0,,0,,
770695,,Beech & 26th,,46.12691096,-122.9585683,0,,0,,
770697,,Washington & 28th,,46.13324802,-122.9579195,,,0,,
770699,,30th  & Maryland,,46.14648937,-122.9622737,0,,0,,
770700,,30th  & Larch,,46.14178955,-122.9623453,0,,0,,
770701,,30th  & Garfield,,46.13718033,-122.9624178,0,,0,,
770702,,30th  & Dover,,46.13391937,-122.9624563,0,,0,,
770703,,7th  & Wal-Mart,,46.12105006,-122.9328926,0,,0,,
770704,,30th & Baltimore,,46.12976667,-122.96195,0,,0,,
770705,,Beech & 26th,,46.12655065,-122.9588072,0,,0,,
770706,,Beech & 23rd,,46.12517599,-122.955714,0,,0,,
770707,,20th & Beech,,46.12420931,-122.9523016,0,,0,,
770708,,20th & Cypress,,46.12754238,-122.9492556,0,,0,,
770710,,20th & Florida,,46.13547872,-122.9445448,0,,0,,
770711,,17th & Hemlock,,46.13657686,-122.9403562,0,,0,,
770712,,17th & Florida,,46.13481536,-122.9410395,0,,0,,
770713,,Delaware & 16th,,46.1309457,-122.9413051,,,0,,
770714,,7th & Washington,,46.14371364,-122.9231829,0,,0,,
770715,,Baltimore & California,,46.12301005,-122.9393967,0,,0,,
770716,,Douglas & Commerce,,46.12837882,-122.9380916,0,,0,,
770717,,12th & Broadway,,46.13824163,-122.9324092,0,,0,,
770718,,Lower Columbia College,,46.14078728,-122.9365427,,,0,,
770719,,Olympia  & 20th,,46.14325,-122.942283,0,,0,,
770720,,Ocean Beach Hwy & Pacific,,46.14700228,-122.9514251,0,,0,,
770721,,30th & Olympia,,46.14950031,-122.9619987,0,,0,,
770722,,30th & Oak,,46.15075505,-122.9616474,0,,0,,
770723,,30th & Pennsylvania,,46.15514211,-122.9571273,0,,0,,
770724,,8th & Vine,,46.1422221,-122.905087,,,0,,
770725,,Baltimore & 14th,,46.12302838,-122.9427173,0,,0,,
770726,,Pacific  & 30th,,46.15670924,-122.9545929,0,,0,,
770727,,Pacific  & Sunset,,46.16475552,-122.9638981,0,,0,,
770728,,38th & Pacific,,46.16850092,-122.9699501,0,,0,,
770729,,38th & Pennsylvania,,46.1640742,-122.9747671,0,,0,,
770730,,38th & Oak,,46.15946792,-122.9794189,,,0,,
770731,,38th & Ocean Beach Hwy,,46.1557054,-122.9831686,,,0,,
770732,,42nd & Ocean Beach Hwy,,46.15966082,-122.9914683,,,0,,
770733,,Olympia & 42nd,,46.16382538,-122.9878307,,,0,,
770734,,Olympia & 46th,,46.16795491,-122.9958424,,,0,,
770735,,46th & Windermere,,46.1657785,-122.9984108,,,0,,
770736,,Alabama & Beech,,46.12696451,-122.964491,,,0,,
770737,,Alabama & Beech,,46.12693666,-122.9647991,,,0,,
770738,,Ash & 4th,,46.14178947,-122.9104567,,,0,,
770739,,Douglas & 7th,,46.1268441,-122.9300991,,,0,,
770740,,Douglas & 7th,,46.12705471,-122.9301594,,,0,,
770741,,Ocean Beach Hwy & 46th,,46.1641142604431,-123.00044276627,,,0,,
770742,,Olympia & 20th @ shelter,,46.14270373,-122.9421615,0,,0,,
770743,,Pacific & Yew NB,,46.13324069,-122.9154537,0,,0,,
770744,,Transit Center,,46.13436667,-122.934617,,,0,,
771466,,18th & Burcham,,46.1502042626911,-122.893067071381,,,0,,
771467,,Pacific & Yew,,46.1335064633004,-122.91561083317,,,0,,
771468,,30th & Ocean Beach,,46.1476195412315,-122.961800518381,,,0,,
771469,,Kelso  & Burcham,,46.1509013118134,-122.907906557043,,,0,,
771470,,Burcham & 18th,,46.1500334536556,-122.89320654625,,,0,,
771471,,30th & Cypress,,46.1304475257262,-122.961577172947,,,0,,
771472,,Washington  & 28th,,46.1330929302178,-122.957954368717,,,0,,
771526,,Ash & 4th,,46.1419576763966,-122.910437924537,,,0,,
781801,,Olympia Way & Constitution,,46.1656694155747,-122.991636595072,,,0,,
781802,,Robbins & Ocean Beach,,46.1719400124779,-123.016373052115,,,0,,
781804,,Talley & Parrott,,46.1230463405947,-122.89983714854,,,0,,
781806,,Washington & 11th,,46.1430072472521,-122.930756679133,,,0,,
781807,,15th & Commerce,,46.1423647653418,-122.934868330025,,,0,,
781811,,7th & Yew,,46.1323643052027,-122.910642561971,,,0,,
781817,,Pacific & Academy,,46.1455326079768,-122.910996142328,,,0,,
